{"type": "FeatureCollection", "features": [{"type":"Feature","geometry":{"type":"Point","coordinates":[-73.977277,40.752686]},"properties":{"cartodb_id":41,"description":null,"name":"Grand Central Terminal","type":"Landmark or place"}},{"type":"Feature","geometry":{"type":"Point","coordinates":[-73.985077,40.748143]},"properties":{"cartodb_id":4,"description":null,"name":"Empire State Building","type":"Landmark or place"}},{"type":"Feature","geometry":{"type":"Point","coordinates":[-74.013739,40.704054]},"properties":{"cartodb_id":20,"description":null,"name":"National Museum of the American Indian","type":"Museum or exhibition"}},{"type":"Feature","geometry":{"type":"Point","coordinates":[-74.016303,40.720681]},"properties":{"cartodb_id":10,"description":null,"name":"Watching the sunset behind New Jersey","type":"Event"}},{"type":"Feature","geometry":{"type":"Point","coordinates":[-73.969805,40.769931]},"properties":{"cartodb_id":14,"description":null,"name":"Lunch time in Central Park","type":"Event"}},{"type":"Feature","geometry":{"type":"Point","coordinates":[-73.997555,40.730885]},"properties":{"cartodb_id":5,"description":null,"name":"Washington Square Park","type":"Area"}},{"type":"Feature","geometry":{"type":"Point","coordinates":[-73.998059,40.722811]},"properties":{"cartodb_id":31,"description":null,"name":"MoMa Shop","type":"Museum or exhibition"}},{"type":"Feature","geometry":{"type":"Point","coordinates":[-73.986794,40.730397]},"properties":{"cartodb_id":38,"description":null,"name":"Mexican Festival - The Day of the Dead - November 2nd","type":"Event"}},{"type":"Feature","geometry":{"type":"Point","coordinates":[-73.997887,40.695778]},"properties":{"cartodb_id":54,"description":null,"name":"Watching Manhattan skyline for the first time","type":"Event"}},{"type":"Feature","geometry":{"type":"Point","coordinates":[-73.986783,40.694017]},"properties":{"cartodb_id":35,"description":null,"name":"Study time at Starbucks coffee shop (No music)","type":"Study places"}},{"type":"Feature","geometry":{"type":"Point","coordinates":[-74.000591,40.765104]},"properties":{"cartodb_id":51,"description":null,"name":"Intrepid Sea, Air and Space Museum in Veterans Day ","type":"Landmark or place"}},{"type":"Feature","geometry":{"type":"Point","coordinates":[-73.998987,40.730921]},"properties":{"cartodb_id":56,"description":null,"name":"Dog's playground ","type":"Event"}},{"type":"Feature","geometry":{"type":"Point","coordinates":[-73.979041,40.758895]},"properties":{"cartodb_id":11,"description":null,"name":"Rockefeller Center","type":"Landmark or place"}},{"type":"Feature","geometry":{"type":"Point","coordinates":[-73.996825,40.698169]},"properties":{"cartodb_id":37,"description":null,"name":"Brooklyn Promenade","type":"Area"}},{"type":"Feature","geometry":{"type":"Point","coordinates":[-73.9771,40.76837]},"properties":{"cartodb_id":16,"description":null,"name":"Central Park Playground","type":"Landmark or place"}},{"type":"Feature","geometry":{"type":"Point","coordinates":[-74.01053,40.70707]},"properties":{"cartodb_id":22,"description":null,"name":"Federal Hall","type":"Landmark or place"}},{"type":"Feature","geometry":{"type":"Point","coordinates":[-73.983736,40.753792]},"properties":{"cartodb_id":7,"description":null,"name":"Bryant Park","type":"Area"}},{"type":"Feature","geometry":{"type":"Point","coordinates":[-74.00791,40.71225]},"properties":{"cartodb_id":25,"description":null,"name":"The Woolworth Building","type":"Landmark or place"}},{"type":"Feature","geometry":{"type":"Point","coordinates":[-73.987373,40.729385]},"properties":{"cartodb_id":17,"description":null,"name":"Study time at Starbucks coffee shop (No music)","type":"Study places"}},{"type":"Feature","geometry":{"type":"Point","coordinates":[-74.017038,40.704062]},"properties":{"cartodb_id":19,"description":null,"name":"Korean War Memorial","type":"Landmark or place"}},{"type":"Feature","geometry":{"type":"Point","coordinates":[-73.961495,40.62502]},"properties":{"cartodb_id":203,"description":null,"name":"Difara's Pizzeria at Brooklyn","type":"Food"}},{"type":"Feature","geometry":{"type":"Point","coordinates":[-73.994358,40.750297]},"properties":{"cartodb_id":47,"description":null,"name":"Madison Square Garden","type":"Landmark or place"}},{"type":"Feature","geometry":{"type":"Point","coordinates":[-73.976634,40.758717]},"properties":{"cartodb_id":12,"description":null,"name":"St. Patrick's Church","type":"Landmark or place"}},{"type":"Feature","geometry":{"type":"Point","coordinates":[-73.973077,40.764767]},"properties":{"cartodb_id":13,"description":null,"name":"Grand Army Plaza","type":"Area"}},{"type":"Feature","geometry":{"type":"Point","coordinates":[-73.990409,40.735917]},"properties":{"cartodb_id":9,"description":null,"name":"Union Square","type":"Area"}},{"type":"Feature","geometry":{"type":"Point","coordinates":[-74.016754,40.703444]},"properties":{"cartodb_id":18,"description":null,"name":"Battery Park","type":"Area"}},{"type":"Feature","geometry":{"type":"Point","coordinates":[-73.988789,40.702623]},"properties":{"cartodb_id":34,"description":null,"name":"Foragers Grocery Store at DUMBO","type":"Edward's and around"}},{"type":"Feature","geometry":{"type":"Point","coordinates":[-74.01199,40.707682]},"properties":{"cartodb_id":23,"description":null,"name":"Trinity Church","type":"Landmark or place"}},{"type":"Feature","geometry":{"type":"Point","coordinates":[-74.006004,40.712748]},"properties":{"cartodb_id":27,"description":null,"name":"City Hall","type":"Landmark or place"}},{"type":"Feature","geometry":{"type":"Point","coordinates":[-73.975443,40.751605]},"properties":{"cartodb_id":42,"description":null,"name":"Chrysler Building","type":"Landmark or place"}},{"type":"Feature","geometry":{"type":"Point","coordinates":[-74.007431,40.712045]},"properties":{"cartodb_id":26,"description":null,"name":"City Hall Park","type":"Area"}},{"type":"Feature","geometry":{"type":"Point","coordinates":[-74.002694,40.713854]},"properties":{"cartodb_id":29,"description":null,"name":"United States District Court","type":"Landmark or place"}},{"type":"Feature","geometry":{"type":"Point","coordinates":[-73.985935,40.693822]},"properties":{"cartodb_id":36,"description":null,"name":"Waiting-for-Sara's Park","type":"Area"}},{"type":"Feature","geometry":{"type":"Point","coordinates":[-74.003799,40.713037]},"properties":{"cartodb_id":28,"description":null,"name":"Municipal Building","type":"Landmark or place"}},{"type":"Feature","geometry":{"type":"Point","coordinates":[-74.002125,40.714411]},"properties":{"cartodb_id":30,"description":null,"name":"New York County Clerk","type":"Landmark or place"}},{"type":"Feature","geometry":{"type":"Point","coordinates":[-73.996364,40.729552]},"properties":{"cartodb_id":39,"description":null,"name":"Study time at Starbucks coffee shop (No music)","type":"Study places"}},{"type":"Feature","geometry":{"type":"Point","coordinates":[-74.010338,40.704351]},"properties":{"cartodb_id":21,"description":null,"name":"Stone Street","type":"Landmark or place"}},{"type":"Feature","geometry":{"type":"Point","coordinates":[-73.986644,40.749086]},"properties":{"cartodb_id":49,"description":null,"name":"Zoni Language Center","type":"Landmark or place"}},{"type":"Feature","geometry":{"type":"Point","coordinates":[-73.989599,40.704554]},"properties":{"cartodb_id":33,"description":null,"name":"Kuma's Park","type":"Edward's and around"}},{"type":"Feature","geometry":{"type":"Point","coordinates":[-73.988902,40.70342]},"properties":{"cartodb_id":32,"description":null,"name":"Edward Penson's apartment","type":"Edward's and around"}},{"type":"Feature","geometry":{"type":"Point","coordinates":[-73.986139,40.757043]},"properties":{"cartodb_id":40,"description":null,"name":"Times Square","type":"Area"}},{"type":"Feature","geometry":{"type":"Point","coordinates":[-73.999636,40.716761]},"properties":{"cartodb_id":46,"description":null,"name":"Eating vietnamise food ","type":"Food"}},{"type":"Feature","geometry":{"type":"Point","coordinates":[-73.976097,40.760809]},"properties":{"cartodb_id":193,"description":null,"name":"Saint Thomas Church","type":"Landmark or place"}},{"type":"Feature","geometry":{"type":"Point","coordinates":[-73.999829,40.715924]},"properties":{"cartodb_id":45,"description":null,"name":"Colombus Park","type":"Area"}},{"type":"Feature","geometry":{"type":"Point","coordinates":[-73.995291,40.750151]},"properties":{"cartodb_id":52,"description":null,"name":"Pizza Suprema","type":"Food"}},{"type":"Feature","geometry":{"type":"Point","coordinates":[-73.993231,40.698511]},"properties":{"cartodb_id":50,"description":null,"name":"Studying time at Vineapple Cafe in Pineapple St (Brooklyn Heights) (Jazz music)","type":"Study places"}},{"type":"Feature","geometry":{"type":"Point","coordinates":[-73.982341,40.753174]},"properties":{"cartodb_id":6,"description":null,"name":"New York Public Library","type":"Landmark or place"}},{"type":"Feature","geometry":{"type":"Point","coordinates":[-73.973726,40.769081]},"properties":{"cartodb_id":15,"description":null,"name":"Info Center of Central Park","type":"Landmark or place"}},{"type":"Feature","geometry":{"type":"Point","coordinates":[-74.003322,40.738027]},"properties":{"cartodb_id":53,"description":null,"name":"Study time at Grounded Organic Coffee & Tea Shop (Rock music)","type":"Study places"}},{"type":"Feature","geometry":{"type":"Point","coordinates":[-74.004818,40.747826]},"properties":{"cartodb_id":48,"description":null,"name":"The High Line","type":"Area"}},{"type":"Feature","geometry":{"type":"Point","coordinates":[-73.98994,40.741]},"properties":{"cartodb_id":8,"description":null,"name":"Flatiron Building","type":"Landmark or place"}},{"type":"Feature","geometry":{"type":"Point","coordinates":[-73.997104,40.731324]},"properties":{"cartodb_id":43,"description":null,"name":"Washington Square Arc","type":"Landmark or place"}},{"type":"Feature","geometry":{"type":"Point","coordinates":[-73.995055,40.731556]},"properties":{"cartodb_id":55,"description":null,"name":"Draper interdisciplinary Master's Program","type":"Landmark or place"}},{"type":"Feature","geometry":{"type":"Point","coordinates":[-74.013165,40.711231]},"properties":{"cartodb_id":24,"description":null,"name":"9/11 Memorial at World Trade Center","type":"Landmark or place"}},{"type":"Feature","geometry":{"type":"Point","coordinates":[-73.991611,40.73486]},"properties":{"cartodb_id":59,"description":null,"name":"Outlets of winter clothes","type":"Landmark or place"}},{"type":"Feature","geometry":{"type":"Point","coordinates":[-73.992244,40.734332]},"properties":{"cartodb_id":60,"description":null,"name":"Vapiano Italian Restaurant with Zoni Students","type":"Food"}},{"type":"Feature","geometry":{"type":"Point","coordinates":[-73.958336,40.76922]},"properties":{"cartodb_id":61,"description":null,"name":"Pizza","type":"Food"}},{"type":"Feature","geometry":{"type":"Point","coordinates":[-73.957922,40.76989]},"properties":{"cartodb_id":62,"description":null,"name":"Thai food in Up Thai Restaurant","type":"Food"}},{"type":"Feature","geometry":{"type":"Point","coordinates":[-73.99211,40.699617]},"properties":{"cartodb_id":238,"description":null,"name":"Granberry's Bakery","type":"Food"}},{"type":"Feature","geometry":{"type":"Point","coordinates":[-73.964961,40.768631]},"properties":{"cartodb_id":63,"description":null,"name":"Former Soviet Mission to the United Nations","type":"Landmark or place"}},{"type":"Feature","geometry":{"type":"Point","coordinates":[-73.96164,40.777682]},"properties":{"cartodb_id":97,"description":null,"name":"Former J. S. Uhlman Mansion ","type":"Landmark or place"}},{"type":"Feature","geometry":{"type":"Point","coordinates":[-73.967546,40.765478]},"properties":{"cartodb_id":74,"description":null,"name":"Third Church of Christ, Scientist ","type":"Landmark or place"}},{"type":"Feature","geometry":{"type":"Point","coordinates":[-73.971248,40.767639]},"properties":{"cartodb_id":78,"description":null,"name":"The Arsenal (part of Central Park Zoo)","type":"Landmark or place"}},{"type":"Feature","geometry":{"type":"Point","coordinates":[-73.974568,40.667216]},"properties":{"cartodb_id":150,"description":null,"name":"Amazing view of Prospect Park in autumn","type":"Event"}},{"type":"Feature","geometry":{"type":"Point","coordinates":[-73.959323,40.78438]},"properties":{"cartodb_id":89,"description":null,"name":"Watching the Central Park Reservoir","type":"Event"}},{"type":"Feature","geometry":{"type":"Point","coordinates":[-73.969628,40.76798]},"properties":{"cartodb_id":79,"description":null,"name":"Temple Emanu-El","type":"Landmark or place"}},{"type":"Feature","geometry":{"type":"Point","coordinates":[-73.963802,40.776301]},"properties":{"cartodb_id":99,"description":null,"name":"Institute of Fine Arts NYU","type":"Landmark or place"}},{"type":"Feature","geometry":{"type":"Point","coordinates":[-73.963566,40.776727]},"properties":{"cartodb_id":98,"description":null,"name":"Ukranian Institute of America (Former Isaac D. Fletcher Mansion and, then, home of the last Stuyvesant)","type":"Landmark or place"}},{"type":"Feature","geometry":{"type":"Point","coordinates":[-73.908892,40.76076]},"properties":{"cartodb_id":141,"description":null,"name":"Big Apple Sunshine Band show in Shillelagh Tavern at Astoria (band of Jim, my Zoni teacher, that plays the bass)","type":"Event"}},{"type":"Feature","geometry":{"type":"Point","coordinates":[-73.975716,40.780216]},"properties":{"cartodb_id":117,"description":null,"name":"The Studio Building","type":"Landmark or place"}},{"type":"Feature","geometry":{"type":"Point","coordinates":[-73.958427,40.783783]},"properties":{"cartodb_id":90,"description":null,"name":"Church of the Heavenly Rest","type":"Landmark or place"}},{"type":"Feature","geometry":{"type":"Point","coordinates":[-73.961554,40.625309]},"properties":{"cartodb_id":204,"description":null,"name":"Kosher Bagel Hole at Brooklyn","type":"Food"}},{"type":"Feature","geometry":{"type":"Point","coordinates":[-73.9746,40.778799]},"properties":{"cartodb_id":120,"description":null,"name":"The Fourth Universalist Society (former Church of the Divine Paternity)","type":"Landmark or place"}},{"type":"Feature","geometry":{"type":"Point","coordinates":[-73.974643,40.778445]},"properties":{"cartodb_id":121,"description":null,"name":"Kenilworth building","type":"Landmark or place"}},{"type":"Feature","geometry":{"type":"Point","coordinates":[-73.979214,40.74516]},"properties":{"cartodb_id":239,"description":null,"name":"Pastrami sandwich and Matzoh Ball Soup in 2nd Avenue Deli (Kosher Restaurant)","type":"Food"}},{"type":"Feature","geometry":{"type":"Point","coordinates":[-73.980351,40.660742]},"properties":{"cartodb_id":206,"description":null,"name":"Connecticut Muffins","type":"Food"}},{"type":"Feature","geometry":{"type":"Point","coordinates":[-73.976151,40.778819]},"properties":{"cartodb_id":122,"description":null,"name":"West 75th Street houses from 1890's","type":"Area"}},{"type":"Feature","geometry":{"type":"Point","coordinates":[-73.993236,40.702558]},"properties":{"cartodb_id":143,"description":null,"name":"Grimaldi's very famous pizza","type":"Food"}},{"type":"Feature","geometry":{"type":"Point","coordinates":[-73.991922,40.700252]},"properties":{"cartodb_id":144,"description":null,"name":"Edward's former building that he bought in the 70's (Candy Factory Building)","type":"Edward's and around"}},{"type":"Feature","geometry":{"type":"Point","coordinates":[-73.97651,40.77821]},"properties":{"cartodb_id":123,"description":null,"name":"West 75th Street houses from 1990's","type":"Area"}},{"type":"Feature","geometry":{"type":"Point","coordinates":[-74.01309,40.713159]},"properties":{"cartodb_id":233,"description":null,"name":"One World Trade Center","type":"Landmark or place"}},{"type":"Feature","geometry":{"type":"Point","coordinates":[-73.975335,40.674963]},"properties":{"cartodb_id":145,"description":null,"name":"Greek meal for Sunday lunch","type":"Food"}},{"type":"Feature","geometry":{"type":"Point","coordinates":[-73.989417,40.702627]},"properties":{"cartodb_id":176,"description":null,"name":"Peas & Pickles Grocery Store at DUMBO","type":"Edward's and around"}},{"type":"Feature","geometry":{"type":"Point","coordinates":[-73.984573,40.689002]},"properties":{"cartodb_id":242,"description":null,"name":"Goodwill","type":"Landmark or place"}},{"type":"Feature","geometry":{"type":"Point","coordinates":[-73.977497,40.777076]},"properties":{"cartodb_id":140,"description":null,"name":"37 West 72nd Street building from 1928-29","type":"Landmark or place"}},{"type":"Feature","geometry":{"type":"Point","coordinates":[-73.979487,40.777905]},"properties":{"cartodb_id":137,"description":null,"name":"105 West 72nd St Building from 1913","type":"Landmark or place"}},{"type":"Feature","geometry":{"type":"Point","coordinates":[-73.970089,40.673909]},"properties":{"cartodb_id":146,"description":null,"name":"Grand Army Plaza","type":"Area"}},{"type":"Feature","geometry":{"type":"Point","coordinates":[-73.957268,40.777495]},"properties":{"cartodb_id":214,"description":null,"name":"Hamburger in Lexington Candy Shop with Juan Pablo and Erika","type":"Food"}},{"type":"Feature","geometry":{"type":"Point","coordinates":[-74.011357,40.70342]},"properties":{"cartodb_id":190,"description":null,"name":"Fraunces Tavern ","type":"Landmark or place"}},{"type":"Feature","geometry":{"type":"Point","coordinates":[-73.942484,40.794448]},"properties":{"cartodb_id":215,"description":null,"name":"Three Kings Parade - Latino Parade (organized by Museo del Barrio)","type":"Event"}},{"type":"Feature","geometry":{"type":"Point","coordinates":[-73.969928,40.672998]},"properties":{"cartodb_id":147,"description":null,"name":"Arc of Grand Army Plaza","type":"Landmark or place"}},{"type":"Feature","geometry":{"type":"Point","coordinates":[-73.963051,40.779298]},"properties":{"cartodb_id":245,"description":null,"name":"The Metropolitan Museum of Art","type":"Museum or exhibition"}},{"type":"Feature","geometry":{"type":"Point","coordinates":[-73.878164,40.851751]},"properties":{"cartodb_id":194,"description":null,"name":"Bronx Zoo","type":"Area"}},{"type":"Feature","geometry":{"type":"Point","coordinates":[-73.968185,40.672367]},"properties":{"cartodb_id":148,"description":null,"name":"Brooklyn Public Library","type":"Landmark or place"}},{"type":"Feature","geometry":{"type":"Point","coordinates":[-73.957767,40.784347]},"properties":{"cartodb_id":88,"description":null,"name":"Cooper-Hewitt, Smithsonian Design Museum","type":"Museum or exhibition"}},{"type":"Feature","geometry":{"type":"Point","coordinates":[-73.907475,40.682672]},"properties":{"cartodb_id":202,"description":null,"name":"Christmas dinner at Juan Pablo's with he, his wife, Xia and Sara","type":"Event"}},{"type":"Feature","geometry":{"type":"Point","coordinates":[-73.970084,40.67159]},"properties":{"cartodb_id":149,"description":null,"name":"Prospect Park","type":"Area"}},{"type":"Feature","geometry":{"type":"Point","coordinates":[-73.955101,40.779055]},"properties":{"cartodb_id":247,"description":null,"name":"Shake Shack at the Upper East Side","type":"Food"}},{"type":"Feature","geometry":{"type":"Point","coordinates":[-73.950284,40.796649]},"properties":{"cartodb_id":216,"description":null,"name":"Harlem Meer at Central Park","type":"Event"}},{"type":"Feature","geometry":{"type":"Point","coordinates":[-73.846681,40.746172]},"properties":{"cartodb_id":249,"description":null,"name":"Chicken wrap and chocolate muffin at the Queens Museum","type":"Food"}},{"type":"Feature","geometry":{"type":"Point","coordinates":[-73.948905,40.791565]},"properties":{"cartodb_id":219,"description":null,"name":"Big and old wall/bridge for subway","type":"Landmark or place"}},{"type":"Feature","geometry":{"type":"Point","coordinates":[-73.989476,40.702391]},"properties":{"cartodb_id":175,"description":null,"name":"Pepperoni pizza at Front Street Pizza","type":"Food"}},{"type":"Feature","geometry":{"type":"Point","coordinates":[-73.988736,40.702395]},"properties":{"cartodb_id":223,"description":null,"name":"La Bagel Delight","type":"Food"}},{"type":"Feature","geometry":{"type":"Point","coordinates":[-73.828629,40.760509]},"properties":{"cartodb_id":232,"description":null,"name":"Hot Point Pot (Chinese Lunch with CUSPers)","type":"Food"}},{"type":"Feature","geometry":{"type":"Point","coordinates":[-74.013305,40.712801]},"properties":{"cartodb_id":234,"description":null,"name":"One World Trade Center Observatory","type":"Event"}},{"type":"Feature","geometry":{"type":"Point","coordinates":[-73.845098,40.746338]},"properties":{"cartodb_id":250,"description":null,"name":"Fountain of the Continents","type":"Landmark or place"}},{"type":"Feature","geometry":{"type":"Point","coordinates":[-74.003815,40.707474]},"properties":{"cartodb_id":235,"description":null,"name":"Titanic Memorial Park","type":"Area"}},{"type":"Feature","geometry":{"type":"Point","coordinates":[-73.846005,40.746082]},"properties":{"cartodb_id":251,"description":null,"name":"First snow!","type":"Event"}},{"type":"Feature","geometry":{"type":"Point","coordinates":[-74.003423,40.707385]},"properties":{"cartodb_id":236,"description":null,"name":"South Street Seaport Museum (Bowne & Co, traditional printers)","type":"Museum or exhibition"}},{"type":"Feature","geometry":{"type":"Point","coordinates":[-73.990141,40.690547]},"properties":{"cartodb_id":261,"description":null,"name":"New York Transit Museum","type":"Museum or exhibition"}},{"type":"Feature","geometry":{"type":"Point","coordinates":[-74.018369,40.706079]},"properties":{"cartodb_id":265,"description":null,"name":"Museum of Jewish Heritage","type":"Museum or exhibition"}},{"type":"Feature","geometry":{"type":"Point","coordinates":[-73.967321,40.765705]},"properties":{"cartodb_id":73,"description":null,"name":"Central Presbiterian Church","type":"Landmark or place"}},{"type":"Feature","geometry":{"type":"Point","coordinates":[-73.963909,40.769281]},"properties":{"cartodb_id":65,"description":null,"name":"House of Woody Allen ","type":"Landmark or place"}},{"type":"Feature","geometry":{"type":"Point","coordinates":[-73.976794,40.779794]},"properties":{"cartodb_id":118,"description":null,"name":"Aylsmere","type":"Landmark or place"}},{"type":"Feature","geometry":{"type":"Point","coordinates":[-73.975335,40.775805]},"properties":{"cartodb_id":126,"description":null,"name":"\"Imagine\" mosaic","type":"Event"}},{"type":"Feature","geometry":{"type":"Point","coordinates":[-73.975448,40.777296]},"properties":{"cartodb_id":124,"description":null,"name":"The Langham building","type":"Landmark or place"}},{"type":"Feature","geometry":{"type":"Point","coordinates":[-73.967729,40.767079]},"properties":{"cartodb_id":81,"description":null,"name":"Roosevelt's twin town house","type":"Landmark or place"}},{"type":"Feature","geometry":{"type":"Point","coordinates":[-73.98461,40.673002]},"properties":{"cartodb_id":103,"description":null,"name":"Old Stone House","type":"Landmark or place"}},{"type":"Feature","geometry":{"type":"Point","coordinates":[-73.962901,40.81173]},"properties":{"cartodb_id":318,"description":null,"name":"Riverside Church","type":"Landmark or place"}},{"type":"Feature","geometry":{"type":"Point","coordinates":[-73.964349,40.769752]},"properties":{"cartodb_id":64,"description":null,"name":"Asian Museum and Society","type":"Museum or exhibition"}},{"type":"Feature","geometry":{"type":"Point","coordinates":[-73.987405,40.702615]},"properties":{"cartodb_id":185,"description":null,"name":"Hipster store where we bought an scarf for Edward at DUMBO","type":"Edward's and around"}},{"type":"Feature","geometry":{"type":"Point","coordinates":[-73.976049,40.776735]},"properties":{"cartodb_id":125,"description":null,"name":"Dakota Apartments","type":"Landmark or place"}},{"type":"Feature","geometry":{"type":"Point","coordinates":[-73.959017,40.783068]},"properties":{"cartodb_id":91,"description":null,"name":"Solomon R. Guggenheim Museum","type":"Museum or exhibition"}},{"type":"Feature","geometry":{"type":"Point","coordinates":[-73.985351,40.671118]},"properties":{"cartodb_id":104,"description":null,"name":"Study-time at Postmark Coffee House in Park Slope at Brooklyn (pop rock 80's, 90's and 2000's)","type":"Study places"}},{"type":"Feature","geometry":{"type":"Point","coordinates":[-73.985994,40.693354]},"properties":{"cartodb_id":156,"description":null,"name":"Graduate Research Assistant presentations by CUSP students","type":"Event"}},{"type":"Feature","geometry":{"type":"Point","coordinates":[-73.960277,40.781216]},"properties":{"cartodb_id":92,"description":null,"name":"Neue Galerie of New York","type":"Museum or exhibition"}},{"type":"Feature","geometry":{"type":"Point","coordinates":[-73.8806,40.849747]},"properties":{"cartodb_id":191,"description":null,"name":"Mexican french fries at the Bronx Zoo","type":"Food"}},{"type":"Feature","geometry":{"type":"Point","coordinates":[-73.957284,40.77964]},"properties":{"cartodb_id":93,"description":null,"name":"Reginald DeKoven Mansion","type":"Landmark or place"}},{"type":"Feature","geometry":{"type":"Point","coordinates":[-73.992351,40.704619]},"properties":{"cartodb_id":105,"description":null,"name":"Watching Manhattan Skyline from Jane's Carousel","type":"Event"}},{"type":"Feature","geometry":{"type":"Point","coordinates":[-73.957509,40.779294]},"properties":{"cartodb_id":94,"description":null,"name":"Lewis Gouveneur Morris Mansion (now Avi Chai fundation)","type":"Landmark or place"}},{"type":"Feature","geometry":{"type":"Point","coordinates":[-73.991198,40.703379]},"properties":{"cartodb_id":173,"description":null,"name":"Almondine Bakery (French bakery)","type":"Food"}},{"type":"Feature","geometry":{"type":"Point","coordinates":[-73.971682,40.782463]},"properties":{"cartodb_id":127,"description":null,"name":"Beresford Apartments","type":"Landmark or place"}},{"type":"Feature","geometry":{"type":"Point","coordinates":[-73.983414,40.753694]},"properties":{"cartodb_id":109,"description":null,"name":"Ice-skating at Bryant Park with Zoni classmates","type":"Event"}},{"type":"Feature","geometry":{"type":"Point","coordinates":[-73.999658,40.733137]},"properties":{"cartodb_id":108,"description":null,"name":"$1 Pizza","type":"Food"}},{"type":"Feature","geometry":{"type":"Point","coordinates":[-73.976548,40.78083]},"properties":{"cartodb_id":112,"description":null,"name":"Shake Shack Burger","type":"Food"}},{"type":"Feature","geometry":{"type":"Point","coordinates":[-73.9952,40.728474]},"properties":{"cartodb_id":107,"description":null,"name":"Study-time at Think Coffee near to Washington Square (Rock Classics 80's and 90's)","type":"Study places"}},{"type":"Feature","geometry":{"type":"Point","coordinates":[-73.979734,40.781598]},"properties":{"cartodb_id":128,"description":null,"name":"Dakota Stables site","type":"Landmark or place"}},{"type":"Feature","geometry":{"type":"Point","coordinates":[-73.957123,40.686341]},"properties":{"cartodb_id":142,"description":null,"name":"Thanksgiving dinner at Arno's (Sara's classmate) with other CUSP-NYU students","type":"Event"}},{"type":"Feature","geometry":{"type":"Point","coordinates":[-73.971623,40.655077]},"properties":{"cartodb_id":205,"description":null,"name":"Watching the Prospect Park Lake sitting on a bench","type":"Event"}},{"type":"Feature","geometry":{"type":"Point","coordinates":[-73.994594,40.657983]},"properties":{"cartodb_id":151,"description":null,"name":"Green-Wood Cemetery (First short visit)","type":"Area"}},{"type":"Feature","geometry":{"type":"Point","coordinates":[-73.976419,40.776134]},"properties":{"cartodb_id":138,"description":null,"name":"Majestic Apartments","type":"Landmark or place"}},{"type":"Feature","geometry":{"type":"Point","coordinates":[-73.98894,40.745229]},"properties":{"cartodb_id":111,"description":null,"name":"Study-time at ______ Cafe","type":"Study places"}},{"type":"Feature","geometry":{"type":"Point","coordinates":[-73.978736,40.758749]},"properties":{"cartodb_id":177,"description":null,"name":"Christmas tree of Rockefeller Center","type":"Event"}},{"type":"Feature","geometry":{"type":"Point","coordinates":[-73.982159,40.75098]},"properties":{"cartodb_id":157,"description":null,"name":"Christmas party at César and Hunter's apartment","type":"Event"}},{"type":"Feature","geometry":{"type":"Point","coordinates":[-73.977106,40.7765]},"properties":{"cartodb_id":139,"description":null,"name":"Oliver Cromwell building","type":"Landmark or place"}},{"type":"Feature","geometry":{"type":"Point","coordinates":[-73.968297,40.672013]},"properties":{"cartodb_id":152,"description":null,"name":"Study-time at Brooklyn Public Library","type":"Study places"}},{"type":"Feature","geometry":{"type":"Point","coordinates":[-73.986391,40.704257]},"properties":{"cartodb_id":184,"description":null,"name":"Brooklyn Roasting Company (Coffee shop) at DUMBO (indie rock and old pop songs)","type":"Study places"}},{"type":"Feature","geometry":{"type":"Point","coordinates":[-73.977309,40.758164]},"properties":{"cartodb_id":178,"description":null,"name":"Christmas show of lights and music on a full facade","type":"Event"}},{"type":"Feature","geometry":{"type":"Point","coordinates":[-73.975126,40.67469]},"properties":{"cartodb_id":153,"description":null,"name":"Roma's Pizzeria (Grandma and Eggplant-Ricotta with soda)","type":"Food"}},{"type":"Feature","geometry":{"type":"Point","coordinates":[-73.962037,40.721652]},"properties":{"cartodb_id":168,"description":null,"name":"East River State Park","type":"Area"}},{"type":"Feature","geometry":{"type":"Point","coordinates":[-73.99535,40.731194]},"properties":{"cartodb_id":154,"description":null,"name":"\"Evolution and Revolution in the Music Business\" at La Maison Française with Fabrice Sergent and Larry Miller","type":"Event"}},{"type":"Feature","geometry":{"type":"Point","coordinates":[-74.01338,40.700549]},"properties":{"cartodb_id":179,"description":null,"name":"Staten Island Ferry","type":"Event"}},{"type":"Feature","geometry":{"type":"Point","coordinates":[-74.001052,40.750053]},"properties":{"cartodb_id":208,"description":null,"name":"Chelsea Park","type":"Area"}},{"type":"Feature","geometry":{"type":"Point","coordinates":[-74.012259,40.707356]},"properties":{"cartodb_id":158,"description":null,"name":"Bean & Bean at Financial District (pop and soft rock classics)","type":"Study places"}},{"type":"Feature","geometry":{"type":"Point","coordinates":[-73.955213,40.720051]},"properties":{"cartodb_id":162,"description":null,"name":"The Bean Coffee Shop (pop rock from 2000's and 2010's)","type":"Study places"}},{"type":"Feature","geometry":{"type":"Point","coordinates":[-73.991584,40.703164]},"properties":{"cartodb_id":174,"description":null,"name":"Jacques Torres Chocolate","type":"Food"}},{"type":"Feature","geometry":{"type":"Point","coordinates":[-73.952628,40.72014]},"properties":{"cartodb_id":163,"description":null,"name":"Farmer's market at Willamsburg","type":"Event"}},{"type":"Feature","geometry":{"type":"Point","coordinates":[-73.967176,40.716692]},"properties":{"cartodb_id":166,"description":null,"name":"People playing in a grand piano put in the middle of the park","type":"Event"}},{"type":"Feature","geometry":{"type":"Point","coordinates":[-73.998252,40.728316]},"properties":{"cartodb_id":195,"description":null,"name":"Bareburger celebrating Sara's last class of this term and Cesar's las class of his master","type":"Food"}},{"type":"Feature","geometry":{"type":"Point","coordinates":[-73.960379,40.721819]},"properties":{"cartodb_id":167,"description":null,"name":"Amazing use of public space by a lot of families","type":"Event"}},{"type":"Feature","geometry":{"type":"Point","coordinates":[-73.961399,40.722299]},"properties":{"cartodb_id":169,"description":null,"name":"Bushwick Intel Park","type":"Area"}},{"type":"Feature","geometry":{"type":"Point","coordinates":[-73.961629,40.777365]},"properties":{"cartodb_id":197,"description":null,"name":"Burscht (russian soup) in E. A. T. at the Upper East Side ","type":"Food"}},{"type":"Feature","geometry":{"type":"Point","coordinates":[-73.966902,40.716668]},"properties":{"cartodb_id":170,"description":null,"name":"Grand Ferry Park","type":"Area"}},{"type":"Feature","geometry":{"type":"Point","coordinates":[-73.975539,40.691776]},"properties":{"cartodb_id":224,"description":null,"name":"Fort Greene Park","type":"Area"}},{"type":"Feature","geometry":{"type":"Point","coordinates":[-73.990055,40.73725]},"properties":{"cartodb_id":198,"description":null,"name":"Chipotle mexican food","type":"Food"}},{"type":"Feature","geometry":{"type":"Point","coordinates":[-73.962466,40.710256]},"properties":{"cartodb_id":171,"description":null,"name":"Willamsburgh Savings Bank","type":"Landmark or place"}},{"type":"Feature","geometry":{"type":"Point","coordinates":[-73.990007,40.737112]},"properties":{"cartodb_id":199,"description":null,"name":"PetCo at Union Square","type":"Landmark or place"}},{"type":"Feature","geometry":{"type":"Point","coordinates":[-73.966033,40.772254]},"properties":{"cartodb_id":67,"description":null,"name":"Henry T. Sloane Mansion","type":"Landmark or place"}},{"type":"Feature","geometry":{"type":"Point","coordinates":[-74.006106,40.739254]},"properties":{"cartodb_id":207,"description":null,"name":"Italian Sanwich in Gansevoort Market at Meatpacking District","type":"Food"}},{"type":"Feature","geometry":{"type":"Point","coordinates":[-73.969595,40.763836]},"properties":{"cartodb_id":75,"description":null,"name":"Christ Church","type":"Landmark or place"}},{"type":"Feature","geometry":{"type":"Point","coordinates":[-73.95193,40.77721]},"properties":{"cartodb_id":240,"description":null,"name":"Lucky Chops concert at Five Mile Stone in Yorkville","type":"Event"}},{"type":"Feature","geometry":{"type":"Point","coordinates":[-74.00977,40.704977]},"properties":{"cartodb_id":101,"description":null,"name":"Pizza at Lower Manhattan","type":"Food"}},{"type":"Feature","geometry":{"type":"Point","coordinates":[-73.994073,40.746729]},"properties":{"cartodb_id":209,"description":null,"name":"Fashion Institute of Technology","type":"Landmark or place"}},{"type":"Feature","geometry":{"type":"Point","coordinates":[-73.967267,40.771247]},"properties":{"cartodb_id":66,"description":null,"name":"The Frick Collection","type":"Museum or exhibition"}},{"type":"Feature","geometry":{"type":"Point","coordinates":[-73.98034,40.780858]},"properties":{"cartodb_id":129,"description":null,"name":"New York Cab Company","type":"Landmark or place"}},{"type":"Feature","geometry":{"type":"Point","coordinates":[-73.95862,40.778811]},"properties":{"cartodb_id":95,"description":null,"name":"Church of Saint Ignatius Loyola","type":"Landmark or place"}},{"type":"Feature","geometry":{"type":"Point","coordinates":[-73.96554,40.767257]},"properties":{"cartodb_id":82,"description":null,"name":"Park Avenue Armory","type":"Museum or exhibition"}},{"type":"Feature","geometry":{"type":"Point","coordinates":[-74.072018,40.643974]},"properties":{"cartodb_id":180,"description":null,"name":"Staten Island Ferry (at S. I.)","type":"Event"}},{"type":"Feature","geometry":{"type":"Point","coordinates":[-73.962139,40.77875]},"properties":{"cartodb_id":96,"description":null,"name":"Former Mansion of Benjamin Duke","type":"Landmark or place"}},{"type":"Feature","geometry":{"type":"Point","coordinates":[-73.989143,40.743989]},"properties":{"cartodb_id":110,"description":null,"name":"Spicy chicken poppers at Hill Chicken Country","type":"Food"}},{"type":"Feature","geometry":{"type":"Point","coordinates":[-73.981939,40.780261]},"properties":{"cartodb_id":130,"description":null,"name":"Ansonia Hotel","type":"Landmark or place"}},{"type":"Feature","geometry":{"type":"Point","coordinates":[-74.003499,40.693622]},"properties":{"cartodb_id":106,"description":null,"name":"Watching Lower Manhattan Skyline","type":"Event"}},{"type":"Feature","geometry":{"type":"Point","coordinates":[-74.035578,40.610874]},"properties":{"cartodb_id":211,"description":null,"name":"Watching the Verrazano-Narrows Bridge, Staten Island and the Upper and Lower Bays of NY","type":"Event"}},{"type":"Feature","geometry":{"type":"Point","coordinates":[-73.977073,40.752979]},"properties":{"cartodb_id":243,"description":null,"name":"North Metro Railroad to Cold Spring and back","type":"Event"}},{"type":"Feature","geometry":{"type":"Point","coordinates":[-73.981188,40.779757]},"properties":{"cartodb_id":131,"description":null,"name":"Apple Bank for Savings (former Central Savings Bank)","type":"Landmark or place"}},{"type":"Feature","geometry":{"type":"Point","coordinates":[-73.995876,40.728986]},"properties":{"cartodb_id":155,"description":null,"name":"Study-time at STERN-NYU","type":"Study places"}},{"type":"Feature","geometry":{"type":"Point","coordinates":[-73.951957,40.792491]},"properties":{"cartodb_id":246,"description":null,"name":"Museum of the City of New York","type":"Museum or exhibition"}},{"type":"Feature","geometry":{"type":"Point","coordinates":[-73.993864,40.703212]},"properties":{"cartodb_id":186,"description":null,"name":"Ignazio's pizzeria","type":"Food"}},{"type":"Feature","geometry":{"type":"Point","coordinates":[-73.981494,40.779181]},"properties":{"cartodb_id":132,"description":null,"name":"Verdi Square","type":"Area"}},{"type":"Feature","geometry":{"type":"Point","coordinates":[-73.961334,40.714212]},"properties":{"cartodb_id":230,"description":null,"name":"\"Narnia\" (Juan Pablo's mysterious bar)","type":"Landmark or place"}},{"type":"Feature","geometry":{"type":"Point","coordinates":[-74.014914,40.616493]},"properties":{"cartodb_id":212,"description":null,"name":"Dyker Heights Christmas Lights","type":"Event"}},{"type":"Feature","geometry":{"type":"Point","coordinates":[-73.975571,40.779428]},"properties":{"cartodb_id":119,"description":null,"name":"West 76th Street houses from 1880's - 1890's","type":"Area"}},{"type":"Feature","geometry":{"type":"Point","coordinates":[-73.949286,40.796897]},"properties":{"cartodb_id":217,"description":null,"name":"Duke Ellington Statue","type":"Landmark or place"}},{"type":"Feature","geometry":{"type":"Point","coordinates":[-73.986542,40.702521]},"properties":{"cartodb_id":187,"description":null,"name":"Pedro's restaurant (mexican food)","type":"Food"}},{"type":"Feature","geometry":{"type":"Point","coordinates":[-74.013718,40.70808]},"properties":{"cartodb_id":160,"description":null,"name":"Philly Style Panini in Cafe Bravo at Financial District","type":"Food"}},{"type":"Feature","geometry":{"type":"Point","coordinates":[-73.948653,40.788734]},"properties":{"cartodb_id":220,"description":null,"name":"Maroccan cuisine in La Shuk at East Harlem","type":"Food"}},{"type":"Feature","geometry":{"type":"Point","coordinates":[-74.013197,40.706258]},"properties":{"cartodb_id":159,"description":null,"name":"Dentistry at The Exchange Dental Group","type":"Event"}},{"type":"Feature","geometry":{"type":"Point","coordinates":[-73.960776,40.818096]},"properties":{"cartodb_id":221,"description":null,"name":"Dinosaur Bar-B-Que at Harlem with Edward","type":"Food"}},{"type":"Feature","geometry":{"type":"Point","coordinates":[-73.952574,40.721571]},"properties":{"cartodb_id":164,"description":null,"name":"McCarren Park","type":"Area"}},{"type":"Feature","geometry":{"type":"Point","coordinates":[-73.984074,40.701533]},"properties":{"cartodb_id":225,"description":null,"name":"Cheap grocery store","type":"Edward's and around"}},{"type":"Feature","geometry":{"type":"Point","coordinates":[-73.981676,40.75345]},"properties":{"cartodb_id":196,"description":null,"name":"Study time in the Map Wing of NYPL","type":"Study places"}},{"type":"Feature","geometry":{"type":"Point","coordinates":[-73.933557,40.86127]},"properties":{"cartodb_id":254,"description":null,"name":"Fort Tryon Park","type":"Area"}},{"type":"Feature","geometry":{"type":"Point","coordinates":[-73.96031,40.718367]},"properties":{"cartodb_id":226,"description":null,"name":"This n' That (Gay Bar in Williamsburg)","type":"Landmark or place"}},{"type":"Feature","geometry":{"type":"Point","coordinates":[-73.963775,40.710361]},"properties":{"cartodb_id":172,"description":null,"name":"Street art mix with public space for pedestrians rather than cars and Williamsburg Bridge behind","type":"Event"}},{"type":"Feature","geometry":{"type":"Point","coordinates":[-73.985935,40.737864]},"properties":{"cartodb_id":200,"description":null,"name":"Gramercy Park","type":"Area"}},{"type":"Feature","geometry":{"type":"Point","coordinates":[-73.932892,40.861878]},"properties":{"cartodb_id":255,"description":null,"name":"View of Upper Manhattan","type":"Event"}},{"type":"Feature","geometry":{"type":"Point","coordinates":[-73.95811,40.721043]},"properties":{"cartodb_id":227,"description":null,"name":"Brooklyn Brewery Bar","type":"Landmark or place"}},{"type":"Feature","geometry":{"type":"Point","coordinates":[-73.957976,40.720994]},"properties":{"cartodb_id":228,"description":null,"name":"Brooklyn Brewery tour around their factory","type":"Event"}},{"type":"Feature","geometry":{"type":"Point","coordinates":[-73.931851,40.864929]},"properties":{"cartodb_id":256,"description":null,"name":"The Cloisters Museum","type":"Museum or exhibition"}},{"type":"Feature","geometry":{"type":"Point","coordinates":[-73.924813,40.862106]},"properties":{"cartodb_id":257,"description":null,"name":"Arepa and Patacón in \"Cachapas y más\", Venezuelan restaurant","type":"Food"}},{"type":"Feature","geometry":{"type":"Point","coordinates":[-73.97408,40.781224]},"properties":{"cartodb_id":113,"description":null,"name":"American Museum of Natural History","type":"Museum or exhibition"}},{"type":"Feature","geometry":{"type":"Point","coordinates":[-73.958952,40.716879]},"properties":{"cartodb_id":229,"description":null,"name":"Joe's Pizza at Williamsburg","type":"Food"}},{"type":"Feature","geometry":{"type":"Point","coordinates":[-74.014142,40.705083]},"properties":{"cartodb_id":262,"description":null,"name":"Hot chocolate and croissant in Caffè Filicori Zecchini at the Financial District","type":"Food"}},{"type":"Feature","geometry":{"type":"Point","coordinates":[-74.012548,40.709922]},"properties":{"cartodb_id":237,"description":null,"name":"Panini & Co (Sicilian Panini)","type":"Food"}},{"type":"Feature","geometry":{"type":"Point","coordinates":[-74.017741,40.705823]},"properties":{"cartodb_id":264,"description":null,"name":"Skyscraper Museum","type":"Museum or exhibition"}},{"type":"Feature","geometry":{"type":"Point","coordinates":[-73.965583,40.772872]},"properties":{"cartodb_id":68,"description":null,"name":"Jospeh Pulitzer Mansion","type":"Landmark or place"}},{"type":"Feature","geometry":{"type":"Point","coordinates":[-73.977224,40.780472]},"properties":{"cartodb_id":115,"description":null,"name":"Flea Market at Upper West Side","type":"Event"}},{"type":"Feature","geometry":{"type":"Point","coordinates":[-73.992062,40.699727]},"properties":{"cartodb_id":188,"description":null,"name":"Asya Indian Restaurant","type":"Food"}},{"type":"Feature","geometry":{"type":"Point","coordinates":[-73.971634,40.765088]},"properties":{"cartodb_id":76,"description":null,"name":"The Pierre","type":"Landmark or place"}},{"type":"Feature","geometry":{"type":"Point","coordinates":[-73.986053,40.693618]},"properties":{"cartodb_id":102,"description":null,"name":"Five Guys burger near NYU-Brooklyn","type":"Food"}},{"type":"Feature","geometry":{"type":"Point","coordinates":[-73.965341,40.774416]},"properties":{"cartodb_id":70,"description":null,"name":"Home of Edward Harkness (nowadays Commonwealth Fund)","type":"Landmark or place"}},{"type":"Feature","geometry":{"type":"Point","coordinates":[-73.97084,40.765965]},"properties":{"cartodb_id":77,"description":null,"name":"Fifth Avenue Synagogue ","type":"Landmark or place"}},{"type":"Feature","geometry":{"type":"Point","coordinates":[-73.960294,40.772738]},"properties":{"cartodb_id":71,"description":null,"name":"St. Jean Baptiste Church","type":"Landmark or place"}},{"type":"Feature","geometry":{"type":"Point","coordinates":[-73.981821,40.779152]},"properties":{"cartodb_id":133,"description":null,"name":"72nd Street Subway Kiosk","type":"Landmark or place"}},{"type":"Feature","geometry":{"type":"Point","coordinates":[-73.965615,40.774062]},"properties":{"cartodb_id":69,"description":null,"name":"Flowers and prayers for Paris at Consulate General of France","type":"Event"}},{"type":"Feature","geometry":{"type":"Point","coordinates":[-73.956962,40.771137]},"properties":{"cartodb_id":72,"description":null,"name":"Study time at Starbucks coffee shop (R&B music)","type":"Study places"}},{"type":"Feature","geometry":{"type":"Point","coordinates":[-73.967943,40.768013]},"properties":{"cartodb_id":80,"description":null,"name":"","type":"Landmark or place"}},{"type":"Feature","geometry":{"type":"Point","coordinates":[-73.98159,40.778324]},"properties":{"cartodb_id":134,"description":null,"name":"Hot Dog and Piña Colada Juice at Gray's Papaya","type":"Food"}},{"type":"Feature","geometry":{"type":"Point","coordinates":[-73.948562,40.785477]},"properties":{"cartodb_id":83,"description":null,"name":"Islamic Cultural Center of New York","type":"Landmark or place"}},{"type":"Feature","geometry":{"type":"Point","coordinates":[-74.008605,40.7401]},"properties":{"cartodb_id":210,"description":null,"name":"Whitney Museum of American Art","type":"Museum or exhibition"}},{"type":"Feature","geometry":{"type":"Point","coordinates":[-73.995382,40.731137]},"properties":{"cartodb_id":161,"description":null,"name":"\"Literature and Philosophy\" with Alain Badiou in dialogue with Emily Apter at La Maison Française","type":"Event"}},{"type":"Feature","geometry":{"type":"Point","coordinates":[-74.077029,40.644117]},"properties":{"cartodb_id":181,"description":null,"name":"Kirspy Chicken Sandwich from Krispy Krunchy Chicken - Cajun Recipe at Staten Island","type":"Food"}},{"type":"Feature","geometry":{"type":"Point","coordinates":[-73.952188,40.787048]},"properties":{"cartodb_id":84,"description":null,"name":"Lunch time in a small park (sandwich)","type":"Food"}},{"type":"Feature","geometry":{"type":"Point","coordinates":[-73.981193,40.778214]},"properties":{"cartodb_id":135,"description":null,"name":"Former Horn & Hardart Automat","type":"Landmark or place"}},{"type":"Feature","geometry":{"type":"Point","coordinates":[-73.955095,40.783689]},"properties":{"cartodb_id":85,"description":null,"name":"Brick Presbyterian Church ","type":"Landmark or place"}},{"type":"Feature","geometry":{"type":"Point","coordinates":[-74.076444,40.646803]},"properties":{"cartodb_id":182,"description":null,"name":"9/11 Memorial at Staten Island","type":"Landmark or place"}},{"type":"Feature","geometry":{"type":"Point","coordinates":[-73.981183,40.778612]},"properties":{"cartodb_id":136,"description":null,"name":"The Van Dyck building","type":"Landmark or place"}},{"type":"Feature","geometry":{"type":"Point","coordinates":[-73.957043,40.784457]},"properties":{"cartodb_id":86,"description":null,"name":"John Henry Hammond Mansion (now Consulate General of Russian Federation)","type":"Landmark or place"}},{"type":"Feature","geometry":{"type":"Point","coordinates":[-74.024999,40.60413]},"properties":{"cartodb_id":213,"description":null,"name":"\"we are not lost, we are not lost, we are not lost\"","type":"Event"}},{"type":"Feature","geometry":{"type":"Point","coordinates":[-73.957295,40.784522]},"properties":{"cartodb_id":87,"description":null,"name":"James A. Burden Jr. Mansion (now the Convent of the Sacred Heart)","type":"Landmark or place"}},{"type":"Feature","geometry":{"type":"Point","coordinates":[-74.074872,40.645513]},"properties":{"cartodb_id":183,"description":null,"name":"Lower Manhattan skyline from Staten Island","type":"Event"}},{"type":"Feature","geometry":{"type":"Point","coordinates":[-73.992759,40.68953]},"properties":{"cartodb_id":241,"description":null,"name":"Trader Joe's in Brooklyn (Boreum Hill)","type":"Landmark or place"}},{"type":"Feature","geometry":{"type":"Point","coordinates":[-73.977073,40.752792]},"properties":{"cartodb_id":244,"description":null,"name":"Magnolia Bakery at Grand Central Station","type":"Food"}},{"type":"Feature","geometry":{"type":"Point","coordinates":[-73.951464,40.79312]},"properties":{"cartodb_id":218,"description":null,"name":"Museo del Barrio","type":"Museum or exhibition"}},{"type":"Feature","geometry":{"type":"Point","coordinates":[-74.011068,40.703241]},"properties":{"cartodb_id":189,"description":null,"name":"The Dead Rabbit Grocery and Grog (Irish restaurant and pub)","type":"Food"}},{"type":"Feature","geometry":{"type":"Point","coordinates":[-73.977717,40.76161]},"properties":{"cartodb_id":57,"description":null,"name":"MoMA Exhibition: Torres-García; Transmissions (art in Eastern Europe and Latin America 1960-1980); Painting and Sculpture 1880s-1940s; Picasso Sculpture; Ocean of Images (New Photography 2015); Endless Houses (Intersections of Art and Architecture); This is for Everybody (Design Experiments for the Common Good); Making Music Modern (Design for Ear and Eye); Soldier, Spectre, Shaman (The Figure and the Second World War); Scenes from a New Heritage (Contemporary Art from the Collection); Take an Object; Jackson Pollock (A Collection Survey 1934-1954","type":"Museum or exhibition"}},{"type":"Feature","geometry":{"type":"Point","coordinates":[-73.846622,40.745916]},"properties":{"cartodb_id":248,"description":null,"name":"Queens Museum","type":"Museum or exhibition"}},{"type":"Feature","geometry":{"type":"Point","coordinates":[-73.976768,40.742908]},"properties":{"cartodb_id":201,"description":null,"name":"Star Wars VII - The Force Awakens","type":"Event"}},{"type":"Feature","geometry":{"type":"Point","coordinates":[-73.851621,40.747224]},"properties":{"cartodb_id":252,"description":null,"name":"New York Hall of Science","type":"Museum or exhibition"}},{"type":"Feature","geometry":{"type":"Point","coordinates":[-73.961275,40.714204]},"properties":{"cartodb_id":231,"description":null,"name":"German sausage at \"Narnia\" (Juan Pablo's mysterious bar)","type":"Food"}},{"type":"Feature","geometry":{"type":"Point","coordinates":[-73.977674,40.68665]},"properties":{"cartodb_id":258,"description":null,"name":"30th Annual Brooklyn Tribute to Dr. Martin Luther King Jr. in his national holiday","type":"Event"}},{"type":"Feature","geometry":{"type":"Point","coordinates":[-73.973597,40.779632]},"properties":{"cartodb_id":253,"description":null,"name":"Chicken empanadas","type":"Food"}},{"type":"Feature","geometry":{"type":"Point","coordinates":[-73.977481,40.686577]},"properties":{"cartodb_id":259,"description":null,"name":"\"The Black Panthers: Vanguard of the Revolution\" documentary at BAM Rose Cinemas in Martin Luther King's Day","type":"Event"}},{"type":"Feature","geometry":{"type":"Point","coordinates":[-73.884746,40.747692]},"properties":{"cartodb_id":260,"description":null,"name":"Pollos A La Brasa Mario (Colombian restaurant) with CUSPers","type":"Food"}},{"type":"Feature","geometry":{"type":"Point","coordinates":[-73.947612,40.835178]},"properties":{"cartodb_id":222,"description":null,"name":"Edward's building at Harlem","type":"Landmark or place"}},{"type":"Feature","geometry":{"type":"Point","coordinates":[-74.017081,40.704587]},"properties":{"cartodb_id":263,"description":null,"name":"Cool Balloons for changing our minds","type":"Museum or exhibition"}},{"type":"Feature","geometry":{"type":"Point","coordinates":[-73.988349,40.703042]},"properties":{"cartodb_id":273,"description":null,"name":"The Arc of Manhattan Bridge","type":"Landmark or place"}},{"type":"Feature","geometry":{"type":"Point","coordinates":[-73.990924,40.733247]},"properties":{"cartodb_id":266,"description":null,"name":"The Strand Bookstore","type":"Landmark or place"}},{"type":"Feature","geometry":{"type":"Point","coordinates":[-73.990865,40.734718]},"properties":{"cartodb_id":267,"description":null,"name":"\"Chicken\" in a Halal (Street Cart)","type":"Food"}},{"type":"Feature","geometry":{"type":"Point","coordinates":[-73.990425,40.735934]},"properties":{"cartodb_id":268,"description":null,"name":"Union Square Park","type":"Area"}},{"type":"Feature","geometry":{"type":"Point","coordinates":[-73.988371,40.703355]},"properties":{"cartodb_id":274,"description":null,"name":"Flea Market at DUMBO","type":"Event"}},{"type":"Feature","geometry":{"type":"Point","coordinates":[-73.991042,40.736031]},"properties":{"cartodb_id":269,"description":null,"name":"Union Square's Farmers Market","type":"Event"}},{"type":"Feature","geometry":{"type":"Point","coordinates":[-74.000757,40.72882]},"properties":{"cartodb_id":270,"description":null,"name":"Old Tbilisi Garden (Georgian Cusine) with CUSPers","type":"Food"}},{"type":"Feature","geometry":{"type":"Point","coordinates":[-73.999411,40.728417]},"properties":{"cartodb_id":271,"description":null,"name":"The Red Lion Pub with CUSPers (live pop and country music)","type":"Landmark or place"}},{"type":"Feature","geometry":{"type":"Point","coordinates":[-73.967101,40.774229]},"properties":{"cartodb_id":278,"description":null,"name":"Model Boat Sailing at Central Park","type":"Event"}},{"type":"Feature","geometry":{"type":"Point","coordinates":[-73.997496,40.730812]},"properties":{"cartodb_id":272,"description":null,"name":"Washington Square Park","type":"Area"}},{"type":"Feature","geometry":{"type":"Point","coordinates":[-73.965417,40.779664]},"properties":{"cartodb_id":275,"description":null,"name":"Central Park's egyptian obelisk","type":"Landmark or place"}},{"type":"Feature","geometry":{"type":"Point","coordinates":[-73.967139,40.779067]},"properties":{"cartodb_id":276,"description":null,"name":"Kids playing next to the Pond","type":"Event"}},{"type":"Feature","geometry":{"type":"Point","coordinates":[-73.973136,40.772023]},"properties":{"cartodb_id":279,"description":null,"name":"AIDS Walk New York Concert (pop, soul and reggae)","type":"Event"}},{"type":"Feature","geometry":{"type":"Point","coordinates":[-73.96657,40.774988]},"properties":{"cartodb_id":277,"description":null,"name":"Alice in Wonderland monument at Central Park","type":"Landmark or place"}},{"type":"Feature","geometry":{"type":"Point","coordinates":[-73.986096,40.730385]},"properties":{"cartodb_id":283,"description":null,"name":"Malaysian and Thai Cusine in Mamak at East Village","type":"Food"}},{"type":"Feature","geometry":{"type":"Point","coordinates":[-73.977138,40.758188]},"properties":{"cartodb_id":280,"description":null,"name":"Saks Fifth Avenue Store","type":"Landmark or place"}},{"type":"Feature","geometry":{"type":"Point","coordinates":[-73.986247,40.704262]},"properties":{"cartodb_id":281,"description":null,"name":"Wrap of chicken with curry and coffee from Brooklyn Roasting Company","type":"Food"}},{"type":"Feature","geometry":{"type":"Point","coordinates":[-73.99748,40.730543]},"properties":{"cartodb_id":282,"description":null,"name":"Nap at Washington Square's lawn","type":"Event"}},{"type":"Feature","geometry":{"type":"Point","coordinates":[-73.983178,40.772644]},"properties":{"cartodb_id":285,"description":null,"name":"Free Philarmonica Friday ","type":"Event"}},{"type":"Feature","geometry":{"type":"Point","coordinates":[-73.984165,40.772677]},"properties":{"cartodb_id":284,"description":null,"name":"Lincon Center","type":"Landmark or place"}},{"type":"Feature","geometry":{"type":"Point","coordinates":[-73.984659,40.73986]},"properties":{"cartodb_id":286,"description":null,"name":"$1 pizza","type":"Food"}},{"type":"Feature","geometry":{"type":"Point","coordinates":[-73.982046,40.753174]},"properties":{"cartodb_id":287,"description":null,"name":"NYPL tour","type":"Event"}},{"type":"Feature","geometry":{"type":"Point","coordinates":[-73.974279,40.686431]},"properties":{"cartodb_id":288,"description":null,"name":"Habana Outpost, Cuban Cuisine (sandwich and quesadilla with mango juice)","type":"Food"}},{"type":"Feature","geometry":{"type":"Point","coordinates":[-74.008187,40.739559]},"properties":{"cartodb_id":289,"description":null,"name":"Drinking beers at \"Biergarten\", a place down The High Line, with the CUSPers","type":"Event"}},{"type":"Feature","geometry":{"type":"Point","coordinates":[-73.952284,40.726129]},"properties":{"cartodb_id":290,"description":null,"name":"Donuts and coffee at \"Peter Pan Donut  & Pastry Shop\" at Greenpoint","type":"Food"}},{"type":"Feature","geometry":{"type":"Point","coordinates":[-73.954967,40.73347]},"properties":{"cartodb_id":291,"description":null,"name":"Arepa de Chócolo and Lulo juice in Cafecito Bogotá at Greenpoint","type":"Food"}},{"type":"Feature","geometry":{"type":"Point","coordinates":[-73.9456,40.747602]},"properties":{"cartodb_id":292,"description":null,"name":"Brunch at LIC Market in Long Island City - Queens","type":"Food"}},{"type":"Feature","geometry":{"type":"Point","coordinates":[-73.96186,40.808198]},"properties":{"cartodb_id":319,"description":null,"name":"Columbia University","type":"Landmark or place"}},{"type":"Feature","geometry":{"type":"Point","coordinates":[-73.960572,40.743315]},"properties":{"cartodb_id":293,"description":null,"name":"Watching Manhattan skyline from Long Island City - Queens","type":"Event"}},{"type":"Feature","geometry":{"type":"Point","coordinates":[-74.005462,40.648264]},"properties":{"cartodb_id":294,"description":null,"name":"Watching the sunset from Sunset Park","type":"Event"}},{"type":"Feature","geometry":{"type":"Point","coordinates":[-73.96319,40.806363]},"properties":{"cartodb_id":320,"description":null,"name":"Columbia University","type":"Area"}},{"type":"Feature","geometry":{"type":"Point","coordinates":[-74.005526,40.648826]},"properties":{"cartodb_id":295,"description":null,"name":"Sunset Park","type":"Area"}},{"type":"Feature","geometry":{"type":"Point","coordinates":[-73.978849,40.686797]},"properties":{"cartodb_id":311,"description":null,"name":"Caribbean Sweet Corn and Mac N' Cheese with Plantains","type":"Food"}},{"type":"Feature","geometry":{"type":"Point","coordinates":[-73.993574,40.668689]},"properties":{"cartodb_id":297,"description":null,"name":"Pineapple juice and Pringles as lunch (and a couple of cheap groceries)","type":"Food"}},{"type":"Feature","geometry":{"type":"Point","coordinates":[-73.969488,40.572794]},"properties":{"cartodb_id":298,"description":null,"name":"Swimming at the sea and relaxing at the beach","type":"Event"}},{"type":"Feature","geometry":{"type":"Point","coordinates":[-73.978313,40.573471]},"properties":{"cartodb_id":299,"description":null,"name":"Nathan's burger, hotdog, fries and onion rings","type":"Food"}},{"type":"Feature","geometry":{"type":"Point","coordinates":[-73.982701,40.567248]},"properties":{"cartodb_id":300,"description":null,"name":"Farthest point of NYC","type":"Landmark or place"}},{"type":"Feature","geometry":{"type":"Point","coordinates":[-73.991053,40.734413]},"properties":{"cartodb_id":301,"description":null,"name":"Max Brenner Restaurant and Chocolatier","type":"Food"}},{"type":"Feature","geometry":{"type":"Point","coordinates":[-73.997485,40.730674]},"properties":{"cartodb_id":302,"description":null,"name":"Nutella n' Strawberry Crepes","type":"Food"}},{"type":"Feature","geometry":{"type":"Point","coordinates":[-73.977926,40.686846]},"properties":{"cartodb_id":312,"description":null,"name":"BAM Dance Africa Bazaar","type":"Event"}},{"type":"Feature","geometry":{"type":"Point","coordinates":[-73.997828,40.730747]},"properties":{"cartodb_id":303,"description":null,"name":"Hanging out in the lawn with Sara in a hot day","type":"Event"}},{"type":"Feature","geometry":{"type":"Point","coordinates":[-73.982352,40.785871]},"properties":{"cartodb_id":304,"description":null,"name":"Picnic and nap at Riverside Park ","type":"Event"}},{"type":"Feature","geometry":{"type":"Point","coordinates":[-73.965679,40.800836]},"properties":{"cartodb_id":305,"description":null,"name":"La Toulousaine Coffee Shop","type":"Food"}},{"type":"Feature","geometry":{"type":"Point","coordinates":[-74.016008,40.691344]},"properties":{"cartodb_id":313,"description":null,"name":"Fort Day","type":"Landmark or place"}},{"type":"Feature","geometry":{"type":"Point","coordinates":[-73.966495,40.783377]},"properties":{"cartodb_id":306,"description":null,"name":"Picnic at Central Park","type":"Food"}},{"type":"Feature","geometry":{"type":"Point","coordinates":[-73.982754,40.76844]},"properties":{"cartodb_id":307,"description":null,"name":"Time Warner Center","type":"Landmark or place"}},{"type":"Feature","geometry":{"type":"Point","coordinates":[-73.994921,40.720282]},"properties":{"cartodb_id":308,"description":null,"name":"Having a beer with Erik (Zoni teacher) and talking a lot","type":"Event"}},{"type":"Feature","geometry":{"type":"Point","coordinates":[-73.997641,40.713289]},"properties":{"cartodb_id":310,"description":null,"name":"Trans World Buddhist Association with Erik (Zoni's teacher)","type":"Landmark or place"}},{"type":"Feature","geometry":{"type":"Point","coordinates":[-74.019377,40.69289]},"properties":{"cartodb_id":314,"description":null,"name":"Castle Williams","type":"Landmark or place"}},{"type":"Feature","geometry":{"type":"Point","coordinates":[-74.016953,40.686943]},"properties":{"cartodb_id":315,"description":null,"name":"Ferry to Pier 6 in the Brooklyn Bridge Park","type":"Event"}},{"type":"Feature","geometry":{"type":"Point","coordinates":[-74.016598,40.68853]},"properties":{"cartodb_id":316,"description":null,"name":"Lemon and Blueberry soda from Brooklyn Soda Works","type":"Food"}},{"type":"Feature","geometry":{"type":"Point","coordinates":[-74.001739,40.692439]},"properties":{"cartodb_id":317,"description":null,"name":"Ferry to Yankee Pier at Governor's Island ","type":"Event"}},{"type":"Feature","geometry":{"type":"Point","coordinates":[-73.973989,40.779428]},"properties":{"cartodb_id":116,"description":null,"name":"New York Historical Society Museum & Library","type":"Museum or exhibition"}}]}